
{"meta": {"code": 200}, "results": [{"zip": 13329, "name": "James A Green High School", "street": "38 Slawson St", "lon": -74.7759, "city": "Dolgeville", "state": "NY", "lat": 43.1022, "country": "US", "gsid": 3600001}, {"zip": 13329, "name": "Dolgeville Elementary School", "street": "38 Slawson St", "lon": -74.7759, "city": "Dolgeville", "state": "NY", "lat": 43.1022, "country": "US", "gsid": 3600002}, {"zip": 13456, "name": "Sauquoit Valley High School", "street": "2601 Oneida St", "lon": -75.2534, "city": "Sauquoit", "state": "NY", "lat": 42.9885, "country": "US", "gsid": 3600003}, {"zip": 13456, "name": "Sauquoit Valley Elementary School", "street": "2601 Oneida St", "lon": -75.2534, "city": "Sauquoit", "state": "NY", "lat": 42.9885, "country": "US", "gsid": 3600004}, {"zip": 13456, "name": "Sauquoit Valley Middle School", "street": "2601 Oneida St", "lon": -75.2534, "city": "Sauquoit", "state": "NY", "lat": 42.9885, "country": "US", "gsid": 3600005}, {"zip": 13684, "name": "Edwards-Knox Elementary School", "street": "2512 County Hwy 24", "lon": -75.1283, "city": "Russell", "state": "NY", "lat": 44.3609, "country": "US", "gsid": 3600006}, {"zip": 12303, "name": "Draper Middle School", "street": "2070 Curry Rd", "lon": -73.953, "city": "Schenectady", "state": "NY", "lat": 42.7755, "country": "US", "gsid": 3600008}, {"zip": 11713, "name": "Bellport Middle School", "street": "35 Kreamer St", "lon": -72.9432, "city": "Bellport", "state": "NY", "lat": 40.7596, "country": "US", "gsid": 3600020}, {"zip": 14572, "name": "Wayland Elementary School", "street": "2350 Rt 63", "lon": -77.6028, "city": "Wayland", "state": "NY", "lat": 42.563, "country": "US", "gsid": 3600038}, {"zip": 13054, "name": "Durhamville School", "street": "5462 Main St", "lon": -75.6772, "city": "Durhamville", "state": "NY", "lat": 43.1273, "country": "US", "gsid": 3600045}]}